rank,gap_id,gap_type,connector_class,from_street,to_street,composite_score,score_connectivity,score_buildability,score_destination,score_lts,score_equity,start_lat,start_lon,end_lat,end_lon,straight_line_m,detour_factor,separation_ratio,current_network_m,recommended_facility,lts_achievable,cost_tier,otm18_basis,start_facility,end_facility,lts_context,corridor_lts,crosses_barrier,master_plan_match,plan_bonus_applied,aadt_note
1,GAP-139,dangling,,Unnamed service,Unnamed service,94.1,95.4,59.3,93.0,100.0,50.0,43.4192243,-80.487813,43.4191096,-80.4890372,100.0,,inf,,Protected cycle track (physically separated),1,medium-high,"OTM Book 18 Fig 3-1: Speed 50-60 km/h or AADT 3,000-8,000 → protected cycle track",shared_path,shared_path,completes_low_stress,2,False,,False,AADT proxy used — verify with municipal traffic model
2,GAP-120,dangling,,Duke Street West,Victoria Street North,91.9,89.1,53.9,100.0,100.0,50.0,43.454205,-80.4959087,43.4530721,-80.4983761,236.0,,inf,,Protected cycle track (physically separated),1,medium-high,"OTM Book 18 Fig 3-1: Speed 50-60 km/h or AADT 3,000-8,000 → protected cycle track",protected_track,protected_track,completes_low_stress,1,False,,False,AADT proxy used — verify with municipal traffic model
3,GAP-039,corridor,,Westheights Drive,Westheights Drive,88.1,93.8,61.0,97.0,30.0,50.0,43.425099,-80.5441273,43.4246284,-80.5438391,57.0,,60.97,3493.0,Protected cycle track (physically separated),1,medium-high,"OTM Book 18 Fig 3-1: Speed 50-60 km/h or AADT 3,000-8,000 → protected cycle track",cycle_lane,cycle_lane,high_stress_barrier,4,False,,False,AADT proxy used — verify with municipal traffic model
4,GAP-037,corridor,,Bearinger Road,Bearinger Road,87.4,91.5,58.8,100.0,30.0,50.0,43.4856015,-80.5468011,43.4856564,-80.5454288,112.0,,16.65,1857.0,Protected cycle track (physically separated),1,medium-high,"OTM Book 18 Fig 3-1: Speed 50-60 km/h or AADT 3,000-8,000 → protected cycle track",cycle_lane,cycle_lane,high_stress_barrier,4,False,,False,AADT proxy used — verify with municipal traffic model
5,GAP-151,dangling,,Seabrook Drive,Amand Drive,86.5,81.1,100.0,43.0,100.0,50.0,43.3853459,-80.4995301,43.3851201,-80.4997388,30.0,,inf,,Signed shared roadway / neighbourhood greenway,2,low,"OTM Book 18 Fig 3-1: Speed ≤30 km/h, low volume → shared roadway",protected_track,protected_track,completes_low_stress,1,False,,False,AADT proxy used — verify with municipal traffic model
6,GAP-126,dangling,,Conestoga Parkway,King Street North,86.1,75.7,55.5,96.0,100.0,50.0,43.5066364,-80.543553,43.506902,-80.541146,196.0,,inf,,Protected cycle track (physically separated),1,medium-high,"OTM Book 18 Fig 3-1: Speed 50-60 km/h or AADT 3,000-8,000 → protected cycle track",shared_path,shared_path,completes_low_stress,1,False,,False,AADT proxy used — verify with municipal traffic model
7,GAP-143,dangling,,Wes Graham Way,Wes Graham Way,86.0,84.5,59.8,100.0,65.0,50.0,43.480427,-80.5503049,43.4796769,-80.5499912,87.0,,inf,,Protected cycle track (physically separated),1,medium-high,"OTM Book 18 Fig 3-1: Speed 50-60 km/h or AADT 3,000-8,000 → protected cycle track",cycle_lane,cycle_lane,reduces_stress,3,False,,False,AADT proxy used — verify with municipal traffic model
8,GAP-096,dangling,,Marcon Court,Unnamed service,85.9,83.0,50.8,85.0,100.0,50.0,43.4142583,-80.5040781,43.4157285,-80.5007274,316.0,,inf,,Protected cycle track (physically separated),1,medium-high,"OTM Book 18 Fig 3-1: Speed 50-60 km/h or AADT 3,000-8,000 → protected cycle track",shared_path,shared_path,completes_low_stress,1,False,,False,AADT proxy used — verify with municipal traffic model
9,GAP-044,detour,,Columbia Street West,Unnamed service,84.8,93.0,50.7,100.0,100.0,50.0,43.4731972,-80.5508391,43.4758642,-80.552264,318.0,18.964300547163568,18.96,6032.0,Protected cycle track (physically separated),1,medium-high,"OTM Book 18 Fig 3-1: Speed 50-60 km/h or AADT 3,000-8,000 → protected cycle track",cycle_lane,protected_track,completes_low_stress,1,False,,False,AADT proxy used — verify with municipal traffic model
10,GAP-094,dangling,,Jubilee Drive,Queen Street South,84.8,83.1,50.5,100.0,100.0,50.0,43.4479951,-80.4960255,43.4462353,-80.4928356,323.0,,inf,,Protected cycle track (physically separated),1,medium-high,"OTM Book 18 Fig 3-1: Speed 50-60 km/h or AADT 3,000-8,000 → protected cycle track",shared_path,cycle_lane,completes_low_stress,2,False,,False,AADT proxy used — verify with municipal traffic model
11,GAP-118,dangling,,Bleams Road,Fischer-Hallman Road,84.7,71.2,53.6,100.0,100.0,50.0,43.4022722,-80.4946199,43.4002682,-80.4958861,245.0,,inf,,Protected cycle track (physically separated),1,medium-high,"OTM Book 18 Fig 3-1: Speed 50-60 km/h or AADT 3,000-8,000 → protected cycle track",shared_path,shared_path,completes_low_stress,1,False,,False,AADT proxy used — verify with municipal traffic model
12,GAP-138,dangling,,Westmount Road North,Westmount Road North,84.6,77.8,59.2,81.0,100.0,50.0,43.4760266,-80.562718,43.4768602,-80.5621736,103.0,,inf,,Protected cycle track (physically separated),1,medium-high,"OTM Book 18 Fig 3-1: Speed 50-60 km/h or AADT 3,000-8,000 → protected cycle track",protected_track,protected_track,completes_low_stress,1,False,,False,AADT proxy used — verify with municipal traffic model
13,GAP-112,dangling,,River Road East,Krug Street,83.8,74.8,52.7,89.0,100.0,50.0,43.4586446,-80.4545644,43.4583743,-80.4578552,267.0,,inf,,Protected cycle track (physically separated),1,medium-high,"OTM Book 18 Fig 3-1: Speed 50-60 km/h or AADT 3,000-8,000 → protected cycle track",cycle_lane,cycle_lane,completes_low_stress,1,False,,False,AADT proxy used — verify with municipal traffic model
14,GAP-113,dangling,,University Avenue West,Westmount Road North,83.7,79.2,52.8,100.0,100.0,50.0,43.4640103,-80.5416685,43.4625443,-80.539072,265.0,,inf,,Protected cycle track (physically separated),1,medium-high,"OTM Book 18 Fig 3-1: Speed 50-60 km/h or AADT 3,000-8,000 → protected cycle track",protected_track,cycle_lane,completes_low_stress,1,False,,False,AADT proxy used — verify with municipal traffic model
15,GAP-030,corridor,,Erb Street West,Erb Street West,83.5,55.4,59.5,100.0,100.0,50.0,43.4628624,-80.5287398,43.4592823,-80.5369433,773.0,,inf,,Signed shared roadway / neighbourhood greenway,2,low,"OTM Book 18 Fig 3-1: Speed ≤30 km/h, low volume → shared roadway",cycle_lane,cycle_lane,completes_low_stress,2,False,,False,AADT proxy used — verify with municipal traffic model
16,GAP-042,detour,,David Street,Highland Road East,83.5,94.3,41.4,100.0,100.0,50.0,43.445664,-80.4955606,43.4409803,-80.4978899,554.0,34.35299303295669,34.35,19022.0,Protected cycle track (physically separated),1,medium-high,"OTM Book 18 Fig 3-1: Speed 50-60 km/h or AADT 3,000-8,000 → protected cycle track",shared_path,protected_track,completes_low_stress,2,False,,False,AADT proxy used — verify with municipal traffic model
17,GAP-132,dangling,,Bleams Road,Harding Street,83.4,76.2,56.9,100.0,100.0,50.0,43.4012074,-80.4987257,43.4025725,-80.4993285,159.0,,inf,,Protected cycle track (physically separated),1,medium-high,"OTM Book 18 Fig 3-1: Speed 50-60 km/h or AADT 3,000-8,000 → protected cycle track",shared_path,protected_track,completes_low_stress,1,False,,False,AADT proxy used — verify with municipal traffic model
18,GAP-131,dangling,,Sleepy Hollow Court,Sleepy Hollow Court,83.3,81.6,56.9,95.0,65.0,50.0,43.4366474,-80.5465622,43.4352348,-80.5470188,161.0,,inf,,Protected cycle track (physically separated),1,medium-high,OTM Book 18 Fig 3-1: Speed 40-50 km/h + endpoint context (connecting to protected track) → protected cycle track recommended,shared_path,shared_path,reduces_stress,3,False,,False,AADT proxy used — verify with municipal traffic model
19,GAP-041,detour,,Highland Road East,Mill Street,83.2,90.4,48.0,100.0,100.0,50.0,43.4402208,-80.4961749,43.4416813,-80.4918484,385.0,51.18224420803354,51.18,19716.0,Protected cycle track (physically separated),1,medium-high,"OTM Book 18 Fig 3-1: Speed 50-60 km/h or AADT 3,000-8,000 → protected cycle track",protected_track,protected_track,completes_low_stress,1,False,,False,AADT proxy used — verify with municipal traffic model
20,GAP-086,dangling,,Albert Street,MidCampus Drive,82.7,78.0,50.0,100.0,100.0,50.0,43.4719897,-80.5299683,43.4740729,-80.5269787,334.0,,inf,,Protected cycle track (physically separated),1,medium-high,"OTM Book 18 Fig 3-1: Speed 50-60 km/h or AADT 3,000-8,000 → protected cycle track",cycle_lane,shared_path,completes_low_stress,1,False,,False,AADT proxy used — verify with municipal traffic model
21,GAP-127,dangling,,Highbrook Street,Westmount Road East,82.1,86.3,56.5,100.0,65.0,50.0,43.4109999,-80.501595,43.4112873,-80.4995272,170.0,,inf,,Protected cycle track (physically separated),1,medium-high,OTM Book 18 Fig 3-1: Speed 40-50 km/h + endpoint context (connecting to protected track) → protected cycle track recommended,shared_path,cycle_lane,reduces_stress,3,False,,False,AADT proxy used — verify with municipal traffic model
22,GAP-080,dangling,,Unnamed service,Father David Bauer Drive,82.0,76.6,49.3,100.0,100.0,50.0,43.4660249,-80.5324861,43.4644531,-80.5362976,354.0,,inf,,Protected cycle track (physically separated),1,medium-high,"OTM Book 18 Fig 3-1: Speed 50-60 km/h or AADT 3,000-8,000 → protected cycle track",shared_path,cycle_lane,completes_low_stress,1,False,,False,AADT proxy used — verify with municipal traffic model
23,GAP-106,dangling,,Country Hill Drive,Homer Watson Boulevard,81.2,73.2,52.2,100.0,100.0,50.0,43.4141139,-80.4699422,43.4158957,-80.467511,279.0,,inf,,Protected cycle track (physically separated),1,medium-high,"OTM Book 18 Fig 3-1: Speed 50-60 km/h or AADT 3,000-8,000 → protected cycle track",shared_path,protected_track,completes_low_stress,2,False,,False,AADT proxy used — verify with municipal traffic model
24,GAP-121,dangling,,Boniface Avenue,Walton Avenue,80.9,71.6,53.9,100.0,100.0,50.0,43.4304028,-80.4629951,43.4284025,-80.4639529,235.0,,inf,,Protected cycle track (physically separated),1,medium-high,"OTM Book 18 Fig 3-1: Speed 50-60 km/h or AADT 3,000-8,000 → protected cycle track",shared_path,cycle_lane,completes_low_stress,1,False,,False,AADT proxy used — verify with municipal traffic model
25,GAP-137,connector,quick_win,Wilson Avenue,Wilson Avenue,80.8,77.0,58.6,100.0,65.0,50.0,43.4145608,-80.4423784,43.4155625,-80.4428589,118.0,,inf,,Protected cycle track (physically separated),1,medium-high,"OTM Book 18 Fig 3-1: Speed 50-60 km/h or AADT 3,000-8,000 → protected cycle track",protected_track,protected_track,reduces_stress,3,False,,False,AADT proxy used — verify with municipal traffic model
26,GAP-140,dangling,,Fairway Road North,Fairway Road North,80.7,92.1,59.6,52.0,100.0,50.0,43.4424976,-80.4142516,43.4431737,-80.4148986,92.0,,inf,,Protected cycle track (physically separated),1,medium-high,"OTM Book 18 Fig 3-1: Speed 50-60 km/h or AADT 3,000-8,000 → protected cycle track",shared_path,cycle_lane,completes_low_stress,1,False,,False,AADT proxy used — verify with municipal traffic model
27,GAP-128,dangling,,Sims Estate Drive,Sims Estate Drive,80.4,86.8,56.7,44.0,100.0,50.0,43.4389087,-80.4118258,43.4381492,-80.4135882,165.0,,inf,,Protected cycle track (physically separated),1,medium-high,OTM Book 18 Fig 3-1: Speed 40-50 km/h + endpoint context (connecting to protected track) → protected cycle track recommended,protected_track,protected_track,completes_low_stress,2,False,,False,AADT proxy used — verify with municipal traffic model
28,GAP-147,dangling,,Franklin Street North,Franklin Street South,80.4,83.2,60.8,100.0,30.0,50.0,43.4345481,-80.447834,43.4340467,-80.4481502,61.0,,inf,,Protected cycle track (physically separated),1,medium-high,"OTM Book 18 Fig 3-1: Speed 50-60 km/h or AADT 3,000-8,000 → protected cycle track",cycle_lane,cycle_lane,high_stress_barrier,4,False,,False,AADT proxy used — verify with municipal traffic model
29,GAP-014,island,,Sydney Street South,Ottawa Street South,80.3,82.5,49.0,100.0,100.0,50.0,43.4377742,-80.4732688,43.4409826,-80.4727267,359.0,,inf,,Protected cycle track (physically separated),1,medium-high,"OTM Book 18 Fig 3-1: Speed 50-60 km/h or AADT 3,000-8,000 → protected cycle track",shared_path,shared_path,completes_low_stress,1,False,,False,AADT proxy used — verify with municipal traffic model
30,GAP-083,dangling,,Shirley Avenue,Victoria Street North,80.2,71.9,49.5,100.0,100.0,50.0,43.4670389,-80.4667656,43.4642432,-80.4648517,347.0,,inf,,Protected cycle track (physically separated),1,medium-high,"OTM Book 18 Fig 3-1: Speed 50-60 km/h or AADT 3,000-8,000 → protected cycle track",cycle_lane,shared_path,completes_low_stress,1,False,,False,AADT proxy used — verify with municipal traffic model
31,GAP-056,connector,network_link,Parkside Drive,625-637 Albert Street,79.9,78.6,45.0,100.0,100.0,50.0,43.4928273,-80.5446108,43.4892804,-80.5416154,463.0,,inf,,Protected cycle track (physically separated),1,medium-high,"OTM Book 18 Fig 3-1: Speed 50-60 km/h or AADT 3,000-8,000 → protected cycle track",protected_track,shared_path,completes_low_stress,1,False,,False,AADT proxy used — verify with municipal traffic model
32,GAP-046,detour,,Highland Road West,Marlborough Avenue,79.7,82.5,46.0,100.0,100.0,50.0,43.4357253,-80.5149896,43.4368112,-80.5098104,435.0,6.809211982354228,6.81,2964.0,Protected cycle track (physically separated),1,medium-high,"OTM Book 18 Fig 3-1: Speed 50-60 km/h or AADT 3,000-8,000 → protected cycle track",cycle_lane,shared_path,completes_low_stress,1,False,,False,AADT proxy used — verify with municipal traffic model
33,GAP-066,connector,network_link,Ottawa Street South,Milfoil Crescent,79.3,79.1,46.9,94.0,100.0,50.0,43.4147454,-80.5137401,43.4149221,-80.5188575,414.0,,inf,,Protected cycle track (physically separated),1,medium-high,"OTM Book 18 Fig 3-1: Speed 50-60 km/h or AADT 3,000-8,000 → protected cycle track",shared_path,shared_path,completes_low_stress,2,False,,False,AADT proxy used — verify with municipal traffic model
34,GAP-123,connector,network_link,Manitou Drive,Manitou Drive,79.0,71.8,54.1,100.0,100.0,50.0,43.4153753,-80.4495403,43.4169557,-80.4513998,231.0,,inf,,Protected cycle track (physically separated),1,medium-high,"OTM Book 18 Fig 3-1: Speed 50-60 km/h or AADT 3,000-8,000 → protected cycle track",protected_track,cycle_lane,completes_low_stress,1,False,,False,AADT proxy used — verify with municipal traffic model
35,GAP-058,connector,network_link,University Avenue West,Unnamed service,78.8,75.8,45.1,100.0,100.0,50.0,43.4691869,-80.5389825,43.4661778,-80.5350679,460.0,,inf,,Protected cycle track (physically separated),1,medium-high,"OTM Book 18 Fig 3-1: Speed 50-60 km/h or AADT 3,000-8,000 → protected cycle track",protected_track,shared_path,completes_low_stress,1,False,,False,AADT proxy used — verify with municipal traffic model
36,GAP-095,dangling,,Bridge Street East,Lancaster Street West,78.7,67.7,50.6,100.0,100.0,50.0,43.4814473,-80.4808328,43.479813,-80.484109,321.0,,inf,,Protected cycle track (physically separated),1,medium-high,"OTM Book 18 Fig 3-1: Speed 50-60 km/h or AADT 3,000-8,000 → protected cycle track",cycle_lane,protected_track,completes_low_stress,1,False,,False,AADT proxy used — verify with municipal traffic model
37,GAP-088,dangling,,Block Line Road,Vanier Drive,78.4,67.1,50.1,100.0,100.0,50.0,43.4221812,-80.4624487,43.4237723,-80.4589564,333.0,,inf,,Protected cycle track (physically separated),1,medium-high,"OTM Book 18 Fig 3-1: Speed 50-60 km/h or AADT 3,000-8,000 → protected cycle track",cycle_lane,protected_track,completes_low_stress,2,False,,False,AADT proxy used — verify with municipal traffic model
38,GAP-087,dangling,,Wilson Avenue,Fairlawn Road,78.3,67.1,50.1,100.0,100.0,50.0,43.4222448,-80.4435333,43.4237643,-80.4470973,334.0,,inf,,Protected cycle track (physically separated),1,medium-high,"OTM Book 18 Fig 3-1: Speed 50-60 km/h or AADT 3,000-8,000 → protected cycle track",protected_track,cycle_lane,completes_low_stress,2,False,,False,AADT proxy used — verify with municipal traffic model
39,GAP-051,connector,network_link,Windale Crescent,Ottawa Street South,78.0,74.4,43.5,100.0,100.0,50.0,43.4189155,-80.5081908,43.4203144,-80.5023168,499.0,,inf,,Protected cycle track (physically separated),1,medium-high,"OTM Book 18 Fig 3-1: Speed 50-60 km/h or AADT 3,000-8,000 → protected cycle track",cycle_lane,protected_track,completes_low_stress,2,False,,False,AADT proxy used — verify with municipal traffic model
40,GAP-071,dangling,,Frederick Street,Lancaster Street East,77.7,70.0,47.5,100.0,65.0,50.0,43.4530157,-80.4834147,43.4497168,-80.4815217,397.0,,inf,,Protected cycle track (physically separated),1,medium-high,OTM Book 18 Fig 3-1: Speed 40-50 km/h + endpoint context (connecting to protected track) → protected cycle track recommended,protected_track,protected_track,reduces_stress,3,False,,False,AADT proxy used — verify with municipal traffic model
41,GAP-078,dangling,,Courtland Avenue East,Ottawa Street South,77.6,65.7,48.9,100.0,100.0,50.0,43.4340488,-80.4742924,43.4344343,-80.4787607,363.0,,inf,,Protected cycle track (physically separated),1,medium-high,"OTM Book 18 Fig 3-1: Speed 50-60 km/h or AADT 3,000-8,000 → protected cycle track",shared_path,protected_track,completes_low_stress,1,False,,False,AADT proxy used — verify with municipal traffic model
42,GAP-038,corridor,,Sportsworld Drive,Sportsworld Drive,77.2,82.0,26.8,100.0,30.0,50.0,43.410152,-80.3920055,43.4092889,-80.392635,109.0,,inf,,Multi-use path (grade separated),1,high,"OTM Book 18 Fig 3-1: Speed >60 km/h or AADT >8,000 → grade-separated path",cycle_lane,cycle_lane,high_stress_barrier,4,False,,False,AADT proxy used — verify with municipal traffic model
43,GAP-146,dangling,,Unnamed tertiary,River Road East,77.2,96.0,52.8,66.0,30.0,50.0,43.4422304,-80.4374693,43.4417182,-80.4378069,63.0,,inf,,Protected cycle track (physically separated),1,medium-high,"OTM Book 18 Fig 3-1: Speed 50-60 km/h or AADT 3,000-8,000 → protected cycle track",shared_path,shared_path,high_stress_barrier,4,False,,False,AADT proxy used — verify with municipal traffic model
44,GAP-047,detour,,Casswell Court,Lexington Road,76.7,83.5,55.4,100.0,65.0,50.0,43.4877053,-80.5205414,43.488934,-80.5187669,198.0,4.510671732585546,4.51,893.0,Protected cycle track (physically separated),1,medium-high,"OTM Book 18 Fig 3-1: Speed 50-60 km/h or AADT 3,000-8,000 → protected cycle track",protected_track,protected_track,reduces_stress,3,False,,False,AADT proxy used — verify with municipal traffic model
45,GAP-119,dangling,,Victoria Street North,Centennial Road,76.7,71.4,53.6,86.0,65.0,50.0,43.4757099,-80.4297894,43.4738946,-80.4280979,244.0,,inf,,Protected cycle track (physically separated),1,medium-high,OTM Book 18 Fig 3-1: Speed 40-50 km/h + endpoint context (connecting to protected track) → protected cycle track recommended,protected_track,protected_track,reduces_stress,3,False,,False,AADT proxy used — verify with municipal traffic model
46,GAP-053,connector,network_link,Parkside Drive,Weber Street North,76.5,70.7,43.7,100.0,100.0,50.0,43.4970932,-80.5460562,43.4990276,-80.5515941,496.0,,inf,,Protected cycle track (physically separated),1,medium-high,"OTM Book 18 Fig 3-1: Speed 50-60 km/h or AADT 3,000-8,000 → protected cycle track",protected_track,cycle_lane,completes_low_stress,1,False,,False,AADT proxy used — verify with municipal traffic model
47,GAP-052,connector,network_link,Homer Watson Boulevard,Jay Court,76.0,69.4,43.5,100.0,100.0,50.0,43.4236685,-80.4757659,43.4192223,-80.4749307,499.0,,inf,,Protected cycle track (physically separated),1,medium-high,"OTM Book 18 Fig 3-1: Speed 50-60 km/h or AADT 3,000-8,000 → protected cycle track",protected_track,shared_path,completes_low_stress,1,False,,False,AADT proxy used — verify with municipal traffic model
48,GAP-091,dangling,,Connaught Street,Connaught Street,75.9,67.4,50.3,87.0,100.0,50.0,43.4311582,-80.4547192,43.4300486,-80.4509638,327.0,,inf,,Protected cycle track (physically separated),1,medium-high,"OTM Book 18 Fig 3-1: Speed 50-60 km/h or AADT 3,000-8,000 → protected cycle track",protected_track,cycle_lane,completes_low_stress,2,False,,False,AADT proxy used — verify with municipal traffic model
49,GAP-124,dangling,,Residence Road,Columbia Street West,75.9,72.0,54.2,100.0,65.0,50.0,43.4713199,-80.5624538,43.4694679,-80.5612077,229.0,,inf,,Protected cycle track (physically separated),1,medium-high,"OTM Book 18 Fig 3-1: Speed 50-60 km/h or AADT 3,000-8,000 → protected cycle track",protected_track,cycle_lane,reduces_stress,3,False,,False,AADT proxy used — verify with municipal traffic model
50,GAP-141,dangling,,Fischer-Hallman Road,Highbrook Court,75.9,88.7,27.1,100.0,30.0,50.0,43.4081154,-80.5017697,43.4087828,-80.5024007,90.0,,inf,,Multi-use path (grade separated),1,high,"OTM Book 18 Fig 3-1: Speed >60 km/h or AADT >8,000 → grade-separated path",shared_path,shared_path,high_stress_barrier,4,False,,False,AADT proxy used — verify with municipal traffic model
51,GAP-090,dangling,,Edgewater Crescent,Fairway Road North,75.8,84.7,50.2,52.0,100.0,50.0,43.4434244,-80.4079908,43.4460209,-80.4099979,331.0,,inf,,Protected cycle track (physically separated),1,medium-high,"OTM Book 18 Fig 3-1: Speed 50-60 km/h or AADT 3,000-8,000 → protected cycle track",shared_path,cycle_lane,completes_low_stress,2,False,,False,AADT proxy used — verify with municipal traffic model
52,GAP-101,dangling,,Activa Avenue,Activa Avenue,75.8,81.6,51.3,37.0,100.0,50.0,43.4053687,-80.5184534,43.4069147,-80.515377,302.0,,inf,,Protected cycle track (physically separated),1,medium-high,"OTM Book 18 Fig 3-1: Speed 50-60 km/h or AADT 3,000-8,000 → protected cycle track",shared_path,shared_path,completes_low_stress,2,False,,False,AADT proxy used — verify with municipal traffic model
53,GAP-149,dangling,,Fischer-Hallman Road,Fischer-Hallman Road,75.1,86.2,27.9,100.0,30.0,50.0,43.4059017,-80.4991495,43.4059561,-80.4997427,48.0,,inf,,Multi-use path (grade separated),1,high,"OTM Book 18 Fig 3-1: Speed >60 km/h or AADT >8,000 → grade-separated path",shared_path,shared_path,high_stress_barrier,4,False,,False,AADT proxy used — verify with municipal traffic model
54,GAP-109,dangling,,Martinglen Crescent,Century Hill Drive,75.0,70.0,52.6,55.0,100.0,50.0,43.4111766,-80.4667058,43.4088283,-80.4658784,270.0,,inf,,Protected cycle track (physically separated),1,medium-high,"OTM Book 18 Fig 3-1: Speed 50-60 km/h or AADT 3,000-8,000 → protected cycle track",shared_path,shared_path,completes_low_stress,1,False,,False,AADT proxy used — verify with municipal traffic model
55,GAP-097,dangling,,Strasburg Road,Unnamed service,74.9,68.0,50.8,80.0,100.0,50.0,43.3988845,-80.4671849,43.3961302,-80.4680346,314.0,,inf,,Protected cycle track (physically separated),1,medium-high,"OTM Book 18 Fig 3-1: Speed 50-60 km/h or AADT 3,000-8,000 → protected cycle track",cycle_lane,shared_path,completes_low_stress,1,False,,False,AADT proxy used — verify with municipal traffic model
56,GAP-110,dangling,,Courtland Avenue East,Borden Avenue South,74.8,70.0,52.6,100.0,65.0,50.0,43.4374367,-80.4779056,43.4355756,-80.4800358,269.0,,inf,,Protected cycle track (physically separated),1,medium-high,OTM Book 18 Fig 3-1: Speed 40-50 km/h + endpoint context (connecting to protected track) → protected cycle track recommended,cycle_lane,shared_path,reduces_stress,3,False,,False,AADT proxy used — verify with municipal traffic model
57,GAP-069,connector,network_link,Unnamed service,Greenfield Avenue,74.5,63.9,47.4,100.0,100.0,50.0,43.4284797,-80.4423884,43.4253419,-80.4448622,402.0,,inf,,Protected cycle track (physically separated),1,medium-high,"OTM Book 18 Fig 3-1: Speed 50-60 km/h or AADT 3,000-8,000 → protected cycle track",shared_path,shared_path,completes_low_stress,1,False,,False,AADT proxy used — verify with municipal traffic model
58,GAP-033,corridor,,Victoria Street South,Victoria Street South,74.4,77.4,22.0,100.0,30.0,50.0,43.4450361,-80.5065296,43.443535,-80.5106788,376.0,,45.86,17236.0,Multi-use path (grade separated),1,high,"OTM Book 18 Fig 3-1: Speed >60 km/h or AADT >8,000 → grade-separated path",cycle_lane,cycle_lane,high_stress_barrier,4,False,,False,AADT proxy used — verify with municipal traffic model
59,GAP-055,connector,network_link,Highland Road East,Stirling Avenue South,74.4,64.8,44.9,100.0,100.0,50.0,43.4400447,-80.4935437,43.4366368,-80.4902425,463.0,,inf,,Protected cycle track (physically separated),1,medium-high,"OTM Book 18 Fig 3-1: Speed 50-60 km/h or AADT 3,000-8,000 → protected cycle track",protected_track,cycle_lane,completes_low_stress,1,False,,False,AADT proxy used — verify with municipal traffic model
60,GAP-114,connector,network_link,Shelley Drive,Shelly Drive,73.1,70.6,53.1,100.0,65.0,50.0,43.4288157,-80.4592602,43.4265341,-80.4597544,257.0,,inf,,Protected cycle track (physically separated),1,medium-high,OTM Book 18 Fig 3-1: Speed 40-50 km/h + endpoint context (connecting to protected track) → protected cycle track recommended,protected_track,protected_track,reduces_stress,3,False,,False,AADT proxy used — verify with municipal traffic model
61,GAP-102,dangling,,Knightsbridge Court,Keats Way,72.8,68.7,51.5,94.0,65.0,50.0,43.4600055,-80.5644155,43.4574845,-80.5656775,298.0,,inf,,Protected cycle track (physically separated),1,medium-high,"OTM Book 18 Fig 3-1: Speed 50-60 km/h or AADT 3,000-8,000 → protected cycle track",shared_path,cycle_lane,reduces_stress,3,False,,False,AADT proxy used — verify with municipal traffic model
62,GAP-125,dangling,,Plains Road,Fischer-Hallman Road,72.6,72.1,54.4,37.0,100.0,50.0,43.3760435,-80.4865694,43.3780209,-80.4871525,225.0,,inf,,Protected cycle track (physically separated),1,medium-high,"OTM Book 18 Fig 3-1: Speed 50-60 km/h or AADT 3,000-8,000 → protected cycle track",shared_path,shared_path,completes_low_stress,1,False,,False,AADT proxy used — verify with municipal traffic model
63,GAP-081,dangling,,Corfield Place,Lackner Boulevard,71.9,76.6,49.3,56.0,65.0,50.0,43.4430022,-80.4200377,43.4448185,-80.41644,354.0,,inf,,Protected cycle track (physically separated),1,medium-high,OTM Book 18 Fig 3-1: Speed 40-50 km/h + endpoint context (connecting to protected track) → protected cycle track recommended,shared_path,shared_path,reduces_stress,3,False,,False,AADT proxy used — verify with municipal traffic model
64,GAP-122,dangling,,Oakdale Court,Doon Mills Drive,71.9,71.7,54.0,61.0,65.0,50.0,43.3862153,-80.4351149,43.3877267,-80.4371216,234.0,,inf,,Protected cycle track (physically separated),1,medium-high,OTM Book 18 Fig 3-1: Speed 40-50 km/h + endpoint context (connecting to protected track) → protected cycle track recommended,shared_path,shared_path,reduces_stress,3,False,,False,AADT proxy used — verify with municipal traffic model
65,GAP-093,dangling,,Doon Village Road,Homer Watson Boulevard,71.6,67.5,50.4,45.0,100.0,50.0,43.3886702,-80.4265663,43.3903056,-80.4232335,325.0,,inf,,Protected cycle track (physically separated),1,medium-high,"OTM Book 18 Fig 3-1: Speed 50-60 km/h or AADT 3,000-8,000 → protected cycle track",shared_path,shared_path,completes_low_stress,1,False,,False,AADT proxy used — verify with municipal traffic model
66,GAP-150,dangling,,Blair Creek Drive,Blair Creek Drive,71.4,80.9,61.9,32.0,65.0,50.0,43.3704082,-80.4402633,43.3705383,-80.4406597,35.0,,inf,,Protected cycle track (physically separated),1,medium-high,"OTM Book 18 Fig 3-1: Speed 50-60 km/h or AADT 3,000-8,000 → protected cycle track",protected_track,protected_track,reduces_stress,3,False,,False,AADT proxy used — verify with municipal traffic model
67,GAP-065,connector,network_link,Unnamed service,Unnamed service,71.2,77.1,46.2,58.0,100.0,50.0,43.4735501,-80.4537823,43.4755441,-80.4492089,431.0,,inf,,Protected cycle track (physically separated),1,medium-high,"OTM Book 18 Fig 3-1: Speed 50-60 km/h or AADT 3,000-8,000 → protected cycle track",protected_track,protected_track,completes_low_stress,1,False,,False,AADT proxy used — verify with municipal traffic model
68,GAP-115,dangling,,The Grand Manors of Sims Estate,Walter Bean Grand River Trail,71.1,79.4,53.2,36.0,100.0,50.0,43.4344141,-80.4118256,43.4366783,-80.4123622,255.0,,inf,,Protected cycle track (physically separated),1,medium-high,"OTM Book 18 Fig 3-1: Speed 50-60 km/h or AADT 3,000-8,000 → protected cycle track",shared_path,protected_track,completes_low_stress,1,False,,False,AADT proxy used — verify with municipal traffic model
69,GAP-057,connector,network_link,Ottawa Street North,Chartwell Court,70.8,73.3,45.0,91.0,65.0,50.0,43.4539297,-80.4356401,43.4498757,-80.4344124,462.0,,inf,,Protected cycle track (physically separated),1,medium-high,OTM Book 18 Fig 3-1: Speed 40-50 km/h + endpoint context (connecting to protected track) → protected cycle track recommended,shared_path,shared_path,reduces_stress,3,False,,False,AADT proxy used — verify with municipal traffic model
70,GAP-075,dangling,,Balzer Road,Courtland Avenue East,70.8,65.3,48.5,100.0,30.0,50.0,43.4181173,-80.4598575,43.4196583,-80.4557612,373.0,,inf,,Protected cycle track (physically separated),1,medium-high,"OTM Book 18 Fig 3-1: Speed 50-60 km/h or AADT 3,000-8,000 → protected cycle track",protected_track,protected_track,high_stress_barrier,4,False,,False,AADT proxy used — verify with municipal traffic model
71,GAP-134,dangling,,Goodrich Drive,Goodrich Drive,70.3,75.2,57.0,89.0,30.0,50.0,43.4155444,-80.433584,43.4157781,-80.4355147,158.0,,inf,,Protected cycle track (physically separated),1,medium-high,"OTM Book 18 Fig 3-1: Speed 50-60 km/h or AADT 3,000-8,000 → protected cycle track",cycle_lane,protected_track,high_stress_barrier,4,False,,False,AADT proxy used — verify with municipal traffic model
72,GAP-040,corridor,,Fountain Street,Fountain Street,70.2,82.0,28.1,64.0,30.0,50.0,43.4814826,-80.4090807,43.4812779,-80.4087542,35.0,,inf,,Multi-use path (grade separated),1,high,"OTM Book 18 Fig 3-1: Speed >60 km/h or AADT >8,000 → grade-separated path",cycle_lane,cycle_lane,high_stress_barrier,4,False,,False,AADT proxy used — verify with municipal traffic model
73,GAP-070,dangling,,River Road East,Thaler Avenue,70.1,64.1,47.5,100.0,30.0,50.0,43.4294247,-80.4217805,43.4314504,-80.4258378,398.0,,inf,,Protected cycle track (physically separated),1,medium-high,"OTM Book 18 Fig 3-1: Speed 50-60 km/h or AADT 3,000-8,000 → protected cycle track",shared_path,shared_path,high_stress_barrier,4,False,,False,AADT proxy used — verify with municipal traffic model
74,GAP-111,dangling,,Cedar Crest Street,Conestoga Parkway,70.1,74.8,52.7,47.0,65.0,50.0,43.4118441,-80.5436163,43.4108551,-80.5405965,268.0,,inf,,Protected cycle track (physically separated),1,medium-high,OTM Book 18 Fig 3-1: Speed 40-50 km/h + endpoint context (connecting to protected track) → protected cycle track recommended,shared_path,shared_path,reduces_stress,3,False,,False,AADT proxy used — verify with municipal traffic model
75,GAP-072,connector,network_link,Ferndale Place,University Avenue East,69.9,65.0,48.3,100.0,65.0,50.0,43.4846653,-80.5138379,43.4817053,-80.5115121,379.0,,inf,,Protected cycle track (physically separated),1,medium-high,"OTM Book 18 Fig 3-1: Speed 50-60 km/h or AADT 3,000-8,000 → protected cycle track",protected_track,cycle_lane,reduces_stress,3,False,,False,AADT proxy used — verify with municipal traffic model
76,GAP-031,corridor,,Ottawa Street North,Ottawa Street North,69.2,65.8,19.4,100.0,30.0,50.0,43.4453982,-80.4637861,43.4478319,-80.4582711,523.0,,inf,,Multi-use path (grade separated),1,high,"OTM Book 18 Fig 3-1: Speed >60 km/h or AADT >8,000 → grade-separated path",protected_track,cycle_lane,high_stress_barrier,4,False,,False,AADT proxy used — verify with municipal traffic model
77,GAP-067,connector,network_link,Wabanaki Drive,Unnamed service,69.1,63.5,47.0,74.0,100.0,50.0,43.409443,-80.4407793,43.4063049,-80.4380805,411.0,,inf,,Protected cycle track (physically separated),1,medium-high,"OTM Book 18 Fig 3-1: Speed 50-60 km/h or AADT 3,000-8,000 → protected cycle track",shared_path,protected_track,completes_low_stress,1,False,,False,AADT proxy used — verify with municipal traffic model
78,GAP-144,dangling,,University Avenue East,Bridge Street West,69.1,78.5,27.4,86.0,30.0,50.0,43.4894,-80.4939085,43.4899058,-80.4945234,75.0,,inf,,Multi-use path (grade separated),1,high,"OTM Book 18 Fig 3-1: Speed >60 km/h or AADT >8,000 → grade-separated path",cycle_lane,cycle_lane,high_stress_barrier,4,False,,False,AADT proxy used — verify with municipal traffic model
79,GAP-084,dangling,,Keewatin Avenue,Misty Court,68.6,66.6,49.7,59.0,65.0,50.0,43.462459,-80.4313366,43.4608545,-80.4276933,344.0,,inf,,Protected cycle track (physically separated),1,medium-high,OTM Book 18 Fig 3-1: Speed 40-50 km/h + endpoint context (connecting to protected track) → protected cycle track recommended,shared_path,shared_path,reduces_stress,3,False,,False,AADT proxy used — verify with municipal traffic model
80,GAP-068,connector,network_link,Postmaster Drive,Huron Road,68.5,63.5,47.0,71.0,100.0,50.0,43.3834793,-80.4929445,43.3821727,-80.4881975,410.0,,inf,,Protected cycle track (physically separated),1,medium-high,"OTM Book 18 Fig 3-1: Speed 50-60 km/h or AADT 3,000-8,000 → protected cycle track",protected_track,protected_track,completes_low_stress,1,False,,False,AADT proxy used — verify with municipal traffic model
81,GAP-104,dangling,,Weber Street North,Weber Street North,68.5,71.9,23.5,100.0,30.0,50.0,43.5029355,-80.5542791,43.5005658,-80.5527371,291.0,,inf,,Multi-use path (grade separated),1,high,"OTM Book 18 Fig 3-1: Speed >60 km/h or AADT >8,000 → grade-separated path",cycle_lane,cycle_lane,high_stress_barrier,4,False,,False,AADT proxy used — verify with municipal traffic model
82,GAP-099,dangling,,Farmington Place,Doon Village Road,68.3,68.1,51.0,73.0,65.0,50.0,43.389274,-80.4422502,43.3912071,-80.4394758,311.0,,inf,,Protected cycle track (physically separated),1,medium-high,OTM Book 18 Fig 3-1: Speed 40-50 km/h + endpoint context (connecting to protected track) → protected cycle track recommended,shared_path,cycle_lane,reduces_stress,3,False,,False,AADT proxy used — verify with municipal traffic model
83,GAP-105,dangling,,Tinatawa Court,Grand River Boulevard,67.9,70.8,51.8,45.0,65.0,50.0,43.4292502,-80.4096505,43.4306523,-80.412689,291.0,,inf,,Protected cycle track (physically separated),1,medium-high,OTM Book 18 Fig 3-1: Speed 40-50 km/h + endpoint context (connecting to protected track) → protected cycle track recommended,shared_path,shared_path,reduces_stress,3,False,,False,AADT proxy used — verify with municipal traffic model
84,GAP-079,dangling,,Parkvale Drive,Unnamed residential,67.2,66.1,49.3,27.0,100.0,50.0,43.3894906,-80.4811558,43.3926728,-80.4812428,354.0,,inf,,Protected cycle track (physically separated),1,medium-high,OTM Book 18 Fig 3-1: Speed 40-50 km/h + endpoint context (connecting to protected track) → protected cycle track recommended,shared_path,shared_path,completes_low_stress,2,False,,False,AADT proxy used — verify with municipal traffic model
85,GAP-136,dangling,,Manitou Drive,Bleams Road,66.9,76.5,26.4,100.0,30.0,50.0,43.4136904,-80.4493513,43.4127576,-80.4503225,130.0,,inf,,Multi-use path (grade separated),1,high,"OTM Book 18 Fig 3-1: Speed >60 km/h or AADT >8,000 → grade-separated path",cycle_lane,protected_track,high_stress_barrier,4,False,,False,AADT proxy used — verify with municipal traffic model
86,GAP-130,dangling,,Old Mill Road,Old Mill Road,66.8,75.0,56.9,46.0,65.0,50.0,43.3935585,-80.4147942,43.394091,-80.416658,162.0,,inf,,Protected cycle track (physically separated),1,medium-high,OTM Book 18 Fig 3-1: Speed 40-50 km/h + endpoint context (connecting to protected track) → protected cycle track recommended,shared_path,protected_track,reduces_stress,3,False,,False,AADT proxy used — verify with municipal traffic model
87,GAP-107,dangling,,Eden Oak Trail,Grand Flats Trail,66.7,83.8,52.4,32.0,65.0,50.0,43.4485692,-80.4018928,43.4509957,-80.4025794,275.0,,inf,,Protected cycle track (physically separated),1,medium-high,OTM Book 18 Fig 3-1: Speed 40-50 km/h + endpoint context (connecting to protected track) → protected cycle track recommended,cycle_lane,protected_track,reduces_stress,3,False,,False,AADT proxy used — verify with municipal traffic model
88,GAP-148,dangling,,Wyecroft Boulevard,Strathmere Court,66.3,80.2,53.3,43.0,30.0,50.0,43.4596192,-80.5718437,43.4597995,-80.5724213,51.0,,inf,,Protected cycle track (physically separated),1,medium-high,"OTM Book 18 Fig 3-1: Speed 50-60 km/h or AADT 3,000-8,000 → protected cycle track",shared_path,shared_path,high_stress_barrier,4,False,,False,AADT proxy used — verify with municipal traffic model
89,GAP-133,dangling,,Doon Village Road,Manitou Drive,66.1,75.2,25.9,99.0,30.0,50.0,43.399093,-80.4470327,43.4004884,-80.4474122,158.0,,inf,,Multi-use path (grade separated),1,high,"OTM Book 18 Fig 3-1: Speed >60 km/h or AADT >8,000 → grade-separated path",cycle_lane,protected_track,high_stress_barrier,4,False,,False,AADT proxy used — verify with municipal traffic model
90,GAP-063,connector,network_link,Unnamed service,Northfield Drive East,65.9,69.6,45.6,100.0,30.0,50.0,43.506945,-80.529459,43.5029363,-80.5298957,447.0,,inf,,Protected cycle track (physically separated),1,medium-high,"OTM Book 18 Fig 3-1: Speed 50-60 km/h or AADT 3,000-8,000 → protected cycle track",protected_track,cycle_lane,high_stress_barrier,4,False,,False,AADT proxy used — verify with municipal traffic model
91,GAP-036,corridor,,Lackner Boulevard,Lackner Boulevard,65.8,68.7,26.5,70.0,30.0,50.0,43.4588412,-80.434662,43.4597411,-80.4356506,128.0,,2.18,279.0,Multi-use path (grade separated),1,high,"OTM Book 18 Fig 3-1: Speed >60 km/h or AADT >8,000 → grade-separated path",cycle_lane,cycle_lane,high_stress_barrier,4,False,,False,AADT proxy used — verify with municipal traffic model
92,GAP-092,connector,network_link,Lackner Boulevard,Springmount Drive,65.5,73.6,50.3,59.0,65.0,50.0,43.4498946,-80.4238377,43.4477258,-80.4265791,327.0,,inf,,Protected cycle track (physically separated),1,medium-high,OTM Book 18 Fig 3-1: Speed 40-50 km/h + endpoint context (connecting to protected track) → protected cycle track recommended,shared_path,shared_path,reduces_stress,3,False,,False,AADT proxy used — verify with municipal traffic model
93,GAP-048,detour,,Unnamed service,Weber Street North,65.4,68.8,2.2,100.0,100.0,50.0,43.4958455,-80.5326197,43.4921,-80.5377271,586.0,3.5639875358915414,3.56,2088.0,Barrier crossing — engineering review required,1,very high,Barrier crossing — OTM Book 18 Section 3.5,shared_path,protected_track,completes_low_stress,1,True,,False,AADT proxy used — verify with municipal traffic model
94,GAP-043,detour,,Ira Needles Boulevard,Old Maple Lane,65.3,85.6,46.2,74.0,30.0,50.0,43.4181408,-80.5527197,43.4173267,-80.5497463,257.0,19.23039608054297,19.23,4935.0,Protected cycle track (physically separated),1,medium-high,"OTM Book 18 Fig 3-1: Speed 50-60 km/h or AADT 3,000-8,000 → protected cycle track",cycle_lane,shared_path,high_stress_barrier,4,False,,False,AADT proxy used — verify with municipal traffic model
95,GAP-027,island,,Union Boulevard,Union Boulevard,65.2,38.3,61.7,100.0,100.0,50.0,43.4557146,-80.5183982,43.4554265,-80.5181276,39.0,,inf,,Protected cycle track (physically separated),1,medium-high,"OTM Book 18 Fig 3-1: Speed 50-60 km/h or AADT 3,000-8,000 → protected cycle track",protected_track,protected_track,completes_low_stress,2,False,,False,AADT proxy used — verify with municipal traffic model
96,GAP-011,island,,Davenport Road,King Street North,65.0,44.5,48.6,100.0,100.0,50.0,43.4998959,-80.5257062,43.4990081,-80.5301346,371.0,,inf,,Protected cycle track (physically separated),1,medium-high,"OTM Book 18 Fig 3-1: Speed 50-60 km/h or AADT 3,000-8,000 → protected cycle track",cycle_lane,protected_track,completes_low_stress,2,False,,False,AADT proxy used — verify with municipal traffic model
97,GAP-074,dangling,,Rittenhouse Road,Ashley Court,64.9,73.3,42.0,81.0,30.0,50.0,43.4094808,-80.4875037,43.4063263,-80.4857842,377.0,,inf,,Protected cycle track (physically separated),1,medium-high,"OTM Book 18 Fig 3-1: Speed 50-60 km/h or AADT 3,000-8,000 → protected cycle track",cycle_lane,shared_path,high_stress_barrier,4,False,,False,AADT proxy used — verify with municipal traffic model
98,GAP-061,connector,network_link,Fischer-Hallman Road,Activa Avenue,64.8,79.1,20.6,100.0,30.0,50.0,43.4168662,-80.5113685,43.4134778,-80.5082844,452.0,,inf,,Multi-use path (grade separated),1,high,"OTM Book 18 Fig 3-1: Speed >60 km/h or AADT >8,000 → grade-separated path",shared_path,shared_path,high_stress_barrier,4,False,,False,AADT proxy used — verify with municipal traffic model
99,GAP-062,connector,network_link,Lackner Boulevard,Drumoak Place,64.0,68.3,45.4,67.0,65.0,50.0,43.4525354,-80.4248757,43.4507881,-80.4299265,452.0,,inf,,Protected cycle track (physically separated),1,medium-high,"OTM Book 18 Fig 3-1: Speed 50-60 km/h or AADT 3,000-8,000 → protected cycle track",shared_path,shared_path,reduces_stress,3,False,,False,AADT proxy used — verify with municipal traffic model
100,GAP-012,island,,Margaret Avenue,Weber Street West,63.9,41.7,48.7,100.0,100.0,50.0,43.4562682,-80.4890805,43.4554983,-80.4935214,369.0,,inf,,Protected cycle track (physically separated),1,medium-high,"OTM Book 18 Fig 3-1: Speed 50-60 km/h or AADT 3,000-8,000 → protected cycle track",protected_track,protected_track,completes_low_stress,1,False,,False,AADT proxy used — verify with municipal traffic model
101,GAP-045,detour,,Weber Street North,Unknown,63.6,82.5,42.3,23.0,100.0,50.0,43.5068575,-80.5563346,43.5094585,-80.5508123,531.0,11.254825583403619,11.25,5977.0,Protected cycle track (physically separated),1,medium-high,"OTM Book 18 Fig 3-1: Speed 50-60 km/h or AADT 3,000-8,000 → protected cycle track",cycle_lane,protected_track,completes_low_stress,1,False,,False,AADT proxy used — verify with municipal traffic model
102,GAP-016,island,,Lincoln Road,Mackay Crescent,63.4,36.5,56.3,100.0,100.0,50.0,43.4715729,-80.512805,43.472476,-80.5145834,175.0,,inf,,Protected cycle track (physically separated),1,medium-high,"OTM Book 18 Fig 3-1: Speed 50-60 km/h or AADT 3,000-8,000 → protected cycle track",cycle_lane,protected_track,completes_low_stress,1,False,,False,AADT proxy used — verify with municipal traffic model
103,GAP-129,dangling,,Bleams Road,Bleams Road,62.5,74.9,25.8,62.0,30.0,50.0,43.409367,-80.4632198,43.4098284,-80.4612908,164.0,,inf,,Multi-use path (grade separated),1,high,"OTM Book 18 Fig 3-1: Speed >60 km/h or AADT >8,000 → grade-separated path",shared_path,shared_path,high_stress_barrier,4,False,,False,AADT proxy used — verify with municipal traffic model
104,GAP-085,dangling,,Unknown,Unnamed service,62.0,66.8,43.3,58.0,30.0,50.0,43.3949588,-80.4832201,43.3980082,-80.483152,339.0,,inf,,Protected cycle track (physically separated),1,medium-high,"OTM Book 18 Fig 3-1: Speed 50-60 km/h or AADT 3,000-8,000 → protected cycle track",shared_path,shared_path,high_stress_barrier,4,False,,False,AADT proxy used — verify with municipal traffic model
105,GAP-142,dangling,,Fischer-Hallman Road,Seabrook Drive,62.0,78.4,27.2,71.0,30.0,50.0,43.3863173,-80.4901034,43.3868684,-80.4908894,88.0,,inf,,Multi-use path (grade separated),1,high,"OTM Book 18 Fig 3-1: Speed >60 km/h or AADT >8,000 → grade-separated path",cycle_lane,protected_track,high_stress_barrier,4,False,,False,AADT proxy used — verify with municipal traffic model
106,GAP-035,corridor,,Lackner Boulevard,Lackner Boulevard,61.7,60.0,25.8,68.0,30.0,50.0,43.4610789,-80.4366739,43.4625124,-80.4370315,163.0,,0.59,96.0,Multi-use path (grade separated),1,high,"OTM Book 18 Fig 3-1: Speed >60 km/h or AADT >8,000 → grade-separated path",cycle_lane,cycle_lane,high_stress_barrier,4,False,,False,AADT proxy used — verify with municipal traffic model
107,GAP-019,island,,Vernon Avenue,Stirling Avenue South,61.2,29.7,59.1,100.0,100.0,50.0,43.4405484,-80.4832272,43.4414298,-80.4827489,105.0,,inf,,Protected cycle track (physically separated),1,medium-high,"OTM Book 18 Fig 3-1: Speed 50-60 km/h or AADT 3,000-8,000 → protected cycle track",cycle_lane,shared_path,completes_low_stress,1,False,,False,AADT proxy used — verify with municipal traffic model
108,GAP-032,corridor,,Lackner Boulevard,Lackner Boulevard,61.2,48.0,21.9,93.0,30.0,50.0,43.4565232,-80.4286267,43.4576573,-80.4330222,379.0,,0.88,332.0,Multi-use path (grade separated),1,high,"OTM Book 18 Fig 3-1: Speed >60 km/h or AADT >8,000 → grade-separated path",cycle_lane,cycle_lane,high_stress_barrier,4,False,,False,AADT proxy used — verify with municipal traffic model
109,GAP-135,dangling,,Fairway Road North,Fairway Road North,61.1,78.8,26.1,67.0,30.0,50.0,43.4368846,-80.4258888,43.4359809,-80.4272438,149.0,,inf,,Multi-use path (grade separated),1,high,"OTM Book 18 Fig 3-1: Speed >60 km/h or AADT >8,000 → grade-separated path",cycle_lane,shared_path,high_stress_barrier,4,False,,False,AADT proxy used — verify with municipal traffic model
110,GAP-022,island,,Roxton Drive,Roxton Drive,60.9,28.3,60.3,100.0,100.0,50.0,43.4607254,-80.5609995,43.4612025,-80.5603448,75.0,,inf,,Protected cycle track (physically separated),1,medium-high,"OTM Book 18 Fig 3-1: Speed 50-60 km/h or AADT 3,000-8,000 → protected cycle track",shared_path,cycle_lane,completes_low_stress,2,False,,False,AADT proxy used — verify with municipal traffic model
111,GAP-098,dangling,,Huron Road,Battler Road,60.8,68.0,23.1,90.0,30.0,50.0,43.3976474,-80.4584774,43.3963862,-80.4619527,314.0,,inf,,Multi-use path (grade separated),1,high,"OTM Book 18 Fig 3-1: Speed >60 km/h or AADT >8,000 → grade-separated path",protected_track,shared_path,high_stress_barrier,4,False,,False,AADT proxy used — verify with municipal traffic model
112,GAP-064,connector,network_link,Lackner Boulevard,Bingemans Centre Drive,60.5,75.8,21.0,85.0,30.0,50.0,43.470035204931904,-80.43998964935241,43.47341,-80.4426828,434.0,,inf,,Multi-use path (grade separated),1,high,"OTM Book 18 Fig 3-1: Speed >60 km/h or AADT >8,000 → grade-separated path",protected_track,cycle_lane,high_stress_barrier,4,False,,False,AADT proxy used — verify with municipal traffic model
113,GAP-008,island,,Ottawa Street South,Highland Road East,60.3,55.7,2.4,100.0,100.0,50.0,43.4295658,-80.4816007,43.4305012,-80.4873552,476.0,,inf,,Barrier crossing — engineering review required,1,very high,Barrier crossing — OTM Book 18 Section 3.5,protected_track,cycle_lane,completes_low_stress,2,True,,False,AADT proxy used — verify with municipal traffic model
114,GAP-003,island,,Strasburg Road,Homer Watson Boulevard,60.1,55.7,1.7,100.0,100.0,50.0,43.4216964,-80.4863486,43.4295583,-80.4897499,916.0,,inf,,Barrier crossing — engineering review required,1,very high,Barrier crossing — OTM Book 18 Section 3.5,cycle_lane,protected_track,completes_low_stress,2,True,,False,AADT proxy used — verify with municipal traffic model
115,GAP-100,connector,network_link,Madeleine Street,Maitland Street,59.9,68.4,51.2,40.0,65.0,50.0,43.386412,-80.480236,43.3878971,-80.4770816,304.0,,inf,,Protected cycle track (physically separated),1,medium-high,OTM Book 18 Fig 3-1: Speed 40-50 km/h + endpoint context (connecting to protected track) → protected cycle track recommended,shared_path,shared_path,reduces_stress,3,False,,False,AADT proxy used — verify with municipal traffic model
116,GAP-009,island,,Unnamed service,University Avenue West,59.7,31.5,47.9,100.0,100.0,50.0,43.4389048,-80.5437799,43.4412323,-80.5473615,388.0,,inf,,Protected cycle track (physically separated),1,medium-high,"OTM Book 18 Fig 3-1: Speed 50-60 km/h or AADT 3,000-8,000 → protected cycle track",shared_path,cycle_lane,completes_low_stress,2,False,,False,AADT proxy used — verify with municipal traffic model
117,GAP-034,corridor,,Lackner Boulevard,Lackner Boulevard,59.7,59.8,25.1,59.0,30.0,50.0,43.4639125,-80.4369051,43.4657523,-80.4366924,205.0,,1.01,207.0,Multi-use path (grade separated),1,high,"OTM Book 18 Fig 3-1: Speed >60 km/h or AADT >8,000 → grade-separated path",cycle_lane,cycle_lane,high_stress_barrier,4,False,,False,AADT proxy used — verify with municipal traffic model
118,GAP-010,island,,Conestoga Parkway,Stirling Avenue South,59.1,43.2,48.0,100.0,65.0,50.0,43.4260361,-80.4948487,43.429328,-80.4963882,387.0,,inf,,Protected cycle track (physically separated),1,medium-high,OTM Book 18 Fig 3-1: Speed 40-50 km/h + endpoint context (connecting to protected track) → protected cycle track recommended,protected_track,protected_track,reduces_stress,3,False,,False,AADT proxy used — verify with municipal traffic model
119,GAP-015,island,,Frederick Street,King Street West,59.1,41.2,51.8,100.0,65.0,50.0,43.4502217,-80.4868395,43.4502458,-80.4904148,289.0,,inf,,Protected cycle track (physically separated),1,medium-high,"OTM Book 18 Fig 3-1: Speed 50-60 km/h or AADT 3,000-8,000 → protected cycle track",protected_track,protected_track,reduces_stress,3,False,,False,AADT proxy used — verify with municipal traffic model
120,GAP-002,island,,Margaret Avenue,Weber Street West,58.4,49.6,31.6,100.0,65.0,50.0,43.4663188,-80.4970761,43.4568996,-80.4950813,1060.0,,inf,,Protected cycle track (physically separated),1,medium-high,OTM Book 18 Fig 3-1: Speed 40-50 km/h + endpoint context (connecting to protected track) → protected cycle track recommended,shared_path,protected_track,reduces_stress,3,False,,False,AADT proxy used — verify with municipal traffic model
121,GAP-108,dangling,,Bearinger Road,Bearinger Road,58.1,69.9,52.5,43.0,30.0,50.0,43.48448,-80.5623745,43.4832958,-80.5653287,272.0,,inf,,Protected cycle track (physically separated),1,medium-high,"OTM Book 18 Fig 3-1: Speed 50-60 km/h or AADT 3,000-8,000 → protected cycle track",cycle_lane,protected_track,high_stress_barrier,4,False,,False,AADT proxy used — verify with municipal traffic model
122,GAP-076,dangling,,Carlin Avenue,Shelley Drive,57.6,65.6,2.7,99.0,30.0,50.0,43.4317855,-80.4632688,43.4316252,-80.4587415,366.0,,inf,,Barrier crossing — engineering review required,1,very high,Barrier crossing — OTM Book 18 Section 3.5,shared_path,protected_track,high_stress_barrier,4,True,,False,AADT proxy used — verify with municipal traffic model
123,GAP-117,dangling,,Lincoln Road,University Avenue East,57.6,71.0,24.3,47.0,30.0,50.0,43.4832902,-80.507812,43.4846417,-80.5053468,249.0,,inf,,Multi-use path (grade separated),1,high,"OTM Book 18 Fig 3-1: Speed >60 km/h or AADT >8,000 → grade-separated path",shared_path,shared_path,high_stress_barrier,4,False,,False,AADT proxy used — verify with municipal traffic model
124,GAP-049,detour,,Fischer-Hallman Road North,Victoria Street South,57.2,39.9,45.1,100.0,65.0,50.0,43.4377228,-80.5301012,43.4378405,-80.5244266,458.0,2.9155833377172953,2.92,1336.0,Protected cycle track (physically separated),1,medium-high,OTM Book 18 Fig 3-1: Speed 40-50 km/h + endpoint context (connecting to protected track) → protected cycle track recommended,cycle_lane,shared_path,reduces_stress,3,False,,False,AADT proxy used — verify with municipal traffic model
125,GAP-103,dangling,,Erbsville Court,Keats Way,56.8,68.3,23.4,49.0,30.0,50.0,43.4534002,-80.5720117,43.4556121,-80.5740295,295.0,,inf,,Multi-use path (grade separated),1,high,"OTM Book 18 Fig 3-1: Speed >60 km/h or AADT >8,000 → grade-separated path",cycle_lane,cycle_lane,high_stress_barrier,4,False,,False,AADT proxy used — verify with municipal traffic model
126,GAP-073,dangling,,Otterbein Road,Otterbein Road,56.5,65.0,48.3,23.0,65.0,50.0,43.4604368,-80.419993,43.4625306,-80.4236805,378.0,,inf,,Protected cycle track (physically separated),1,medium-high,OTM Book 18 Fig 3-1: Speed 40-50 km/h + endpoint context (connecting to protected track) → protected cycle track recommended,protected_track,shared_path,reduces_stress,3,False,,False,AADT proxy used — verify with municipal traffic model
127,GAP-024,island,,Laurelwood Drive,James Downey Way,56.2,30.8,60.8,71.0,100.0,50.0,43.475398,-80.568149,43.4750599,-80.5687628,62.0,,inf,,Protected cycle track (physically separated),1,medium-high,"OTM Book 18 Fig 3-1: Speed 50-60 km/h or AADT 3,000-8,000 → protected cycle track",protected_track,shared_path,completes_low_stress,2,False,,False,AADT proxy used — verify with municipal traffic model
128,GAP-054,connector,network_link,Hagen Court,Unnamed service,56.1,61.1,44.9,42.0,65.0,50.0,43.503014,-80.502168,43.5040862,-80.4966158,463.0,,inf,,Protected cycle track (physically separated),1,medium-high,"OTM Book 18 Fig 3-1: Speed 50-60 km/h or AADT 3,000-8,000 → protected cycle track",shared_path,protected_track,reduces_stress,3,False,,False,AADT proxy used — verify with municipal traffic model
129,GAP-020,island,,University Avenue East,Carter Avenue,56.0,29.6,59.5,100.0,65.0,50.0,43.4803252,-80.5142807,43.4794732,-80.5142032,95.0,,inf,,Protected cycle track (physically separated),1,medium-high,OTM Book 18 Fig 3-1: Speed 40-50 km/h + endpoint context (connecting to protected track) → protected cycle track recommended,cycle_lane,protected_track,reduces_stress,3,False,,False,AADT proxy used — verify with municipal traffic model
130,GAP-077,dangling,,Strasburg Road,Huron Road,55.9,65.6,48.9,18.0,65.0,50.0,43.3871605,-80.4690772,43.3875007,-80.4735602,364.0,,inf,,Protected cycle track (physically separated),1,medium-high,OTM Book 18 Fig 3-1: Speed 40-50 km/h + endpoint context (connecting to protected track) → protected cycle track recommended,shared_path,protected_track,reduces_stress,3,False,,False,AADT proxy used — verify with municipal traffic model
131,GAP-017,island,,Keats Way,Keats Way,55.6,29.9,56.7,100.0,65.0,50.0,43.4571973,-80.5594711,43.4581866,-80.5579448,165.0,,inf,,Protected cycle track (physically separated),1,medium-high,"OTM Book 18 Fig 3-1: Speed 50-60 km/h or AADT 3,000-8,000 → protected cycle track",cycle_lane,cycle_lane,reduces_stress,3,False,,False,AADT proxy used — verify with municipal traffic model
132,GAP-021,island,,Glasgow Street,Glasgow Street,55.5,27.8,59.5,75.0,100.0,50.0,43.4464582,-80.5324421,43.446093,-80.533496,94.0,,inf,,Protected cycle track (physically separated),1,medium-high,"OTM Book 18 Fig 3-1: Speed 50-60 km/h or AADT 3,000-8,000 → protected cycle track",cycle_lane,cycle_lane,completes_low_stress,2,False,,False,AADT proxy used — verify with municipal traffic model
133,GAP-059,connector,network_link,Woolwich Street,Unnamed service,54.8,61.2,45.1,35.0,65.0,50.0,43.4981302,-80.4813772,43.500941,-80.4772041,459.0,,inf,,Protected cycle track (physically separated),1,medium-high,OTM Book 18 Fig 3-1: Speed 40-50 km/h + endpoint context (connecting to protected track) → protected cycle track recommended,cycle_lane,protected_track,reduces_stress,3,False,,False,AADT proxy used — verify with municipal traffic model
134,GAP-060,connector,network_link,Homer Watson Boulevard,Homer Watson Boulevard,54.2,61.3,20.5,83.0,30.0,50.0,43.4019597,-80.4565239,43.405766,-80.458666,457.0,,inf,,Multi-use path (grade separated),1,high,"OTM Book 18 Fig 3-1: Speed >60 km/h or AADT >8,000 → grade-separated path",protected_track,shared_path,high_stress_barrier,4,False,,False,AADT proxy used — verify with municipal traffic model
135,GAP-145,dangling,,Fountain Street North,Fountain Street North,54.2,79.6,27.6,9.0,30.0,50.0,43.4278998,-80.3800485,43.4284606,-80.3799234,63.0,,inf,,Multi-use path (grade separated),1,high,"OTM Book 18 Fig 3-1: Speed >60 km/h or AADT >8,000 → grade-separated path",shared_path,shared_path,high_stress_barrier,4,False,,False,AADT proxy used — verify with municipal traffic model
136,GAP-013,island,,Mill Street,Highland Road East,53.5,28.6,49.0,100.0,65.0,50.0,43.4354309,-80.4850306,43.4329312,-80.4878821,361.0,,inf,,Protected cycle track (physically separated),1,medium-high,OTM Book 18 Fig 3-1: Speed 40-50 km/h + endpoint context (connecting to protected track) → protected cycle track recommended,cycle_lane,protected_track,reduces_stress,3,False,,False,AADT proxy used — verify with municipal traffic model
137,GAP-023,island,,Belmont Avenue West,Belmont Avenue West,52.4,33.2,60.3,100.0,30.0,50.0,43.4453155,-80.5130326,43.4446937,-80.5127216,74.0,,inf,,Protected cycle track (physically separated),1,medium-high,"OTM Book 18 Fig 3-1: Speed 50-60 km/h or AADT 3,000-8,000 → protected cycle track",cycle_lane,cycle_lane,high_stress_barrier,4,False,,False,AADT proxy used — verify with municipal traffic model
138,GAP-089,connector,network_link,Strasburg Road,Huron Road,51.8,67.1,22.8,57.0,30.0,50.0,43.3918316,-80.4659798,43.3944692,-80.4640427,332.0,,inf,,Multi-use path (grade separated),1,high,"OTM Book 18 Fig 3-1: Speed >60 km/h or AADT >8,000 → grade-separated path",protected_track,shared_path,high_stress_barrier,4,False,,False,AADT proxy used — verify with municipal traffic model
139,GAP-116,connector,network_link,Fountain Street South,Trans-Canada Trail,51.5,71.0,24.3,20.0,65.0,50.0,43.3863598,-80.387765,43.3864363,-80.3908515,250.0,,inf,,Multi-use path (grade separated),1,high,"OTM Book 18 Fig 3-1: Speed >60 km/h or AADT >8,000 → grade-separated path",protected_track,protected_track,reduces_stress,3,False,,False,AADT proxy used — verify with municipal traffic model
140,GAP-001,island,,East Avenue,Charles Street East,50.7,30.4,31.6,100.0,65.0,50.0,43.4525583,-80.4727169,43.4432844,-80.4778445,1111.0,,inf,,Protected cycle track (physically separated),1,medium-high,OTM Book 18 Fig 3-1: Speed 40-50 km/h + endpoint context (connecting to protected track) → protected cycle track recommended,protected_track,shared_path,reduces_stress,3,False,,False,AADT proxy used — verify with municipal traffic model
141,GAP-082,connector,network_link,Huron Road,Huron Road,49.8,66.3,22.4,49.0,30.0,50.0,43.382753,-80.4833264,43.3837802,-80.4792233,351.0,,inf,,Multi-use path (grade separated),1,high,"OTM Book 18 Fig 3-1: Speed >60 km/h or AADT >8,000 → grade-separated path",protected_track,protected_track,high_stress_barrier,4,False,,False,AADT proxy used — verify with municipal traffic model
142,GAP-026,island,,Northfield Drive West,Northfield Drive West,48.5,39.6,28.0,100.0,30.0,50.0,43.5001458,-80.5378275,43.4998207,-80.5375618,42.0,,inf,,Multi-use path (grade separated),1,high,"OTM Book 18 Fig 3-1: Speed >60 km/h or AADT >8,000 → grade-separated path",shared_path,shared_path,high_stress_barrier,4,False,,False,AADT proxy used — verify with municipal traffic model
143,GAP-004,island,,Unnamed service,Ira Needles Boulevard,47.9,31.2,31.6,58.0,100.0,50.0,43.4281834,-80.5646241,43.4343884,-80.5573053,908.0,,inf,,Protected cycle track (physically separated),1,medium-high,"OTM Book 18 Fig 3-1: Speed 50-60 km/h or AADT 3,000-8,000 → protected cycle track",shared_path,cycle_lane,completes_low_stress,1,False,,False,AADT proxy used — verify with municipal traffic model
144,GAP-005,island,,McGarry Drive,Fischer-Hallman Road,47.5,54.4,15.9,78.0,30.0,50.0,43.4234208,-80.5189608,43.4289237,-80.5234977,713.0,,inf,,Multi-use path (grade separated),1,high,"OTM Book 18 Fig 3-1: Speed >60 km/h or AADT >8,000 → grade-separated path",cycle_lane,protected_track,high_stress_barrier,4,False,,False,AADT proxy used — verify with municipal traffic model
145,GAP-025,island,,Bennington Gate,Columbia Street West,46.7,29.2,60.8,53.0,65.0,50.0,43.4645296,-80.5739437,43.46496,-80.573467,61.0,,inf,,Protected cycle track (physically separated),1,medium-high,"OTM Book 18 Fig 3-1: Speed 50-60 km/h or AADT 3,000-8,000 → protected cycle track",shared_path,protected_track,reduces_stress,3,False,,False,AADT proxy used — verify with municipal traffic model
146,GAP-007,island,,Woodhurst Court,Westforest Trail,46.2,41.0,19.2,95.0,30.0,50.0,43.432305,-80.545471,43.4335189,-80.5391357,529.0,,inf,,Multi-use path (grade separated),1,high,"OTM Book 18 Fig 3-1: Speed >60 km/h or AADT >8,000 → grade-separated path",shared_path,cycle_lane,high_stress_barrier,4,False,,False,AADT proxy used — verify with municipal traffic model
147,GAP-029,island,,Erb Street West,Erb Street West,45.5,32.0,28.3,100.0,30.0,50.0,43.4642552,-80.5255147,43.4644746,-80.5254675,25.0,,inf,,Multi-use path (grade separated),1,high,"OTM Book 18 Fig 3-1: Speed >60 km/h or AADT >8,000 → grade-separated path",cycle_lane,protected_track,high_stress_barrier,4,False,,False,AADT proxy used — verify with municipal traffic model
148,GAP-028,island,,Laurelwood Drive,Laurelwood Drive,42.6,30.4,62.2,55.0,30.0,50.0,43.4747984,-80.5723669,43.474721,-80.5720576,26.0,,inf,,Protected cycle track (physically separated),1,medium-high,"OTM Book 18 Fig 3-1: Speed 50-60 km/h or AADT 3,000-8,000 → protected cycle track",protected_track,protected_track,high_stress_barrier,4,False,,False,AADT proxy used — verify with municipal traffic model
149,GAP-018,island,,Lexington Road,Lexington Road,40.3,49.3,26.7,41.0,30.0,50.0,43.4947098,-80.5100254,43.4940211,-80.5110836,115.0,,inf,,Multi-use path (grade separated),1,high,"OTM Book 18 Fig 3-1: Speed >60 km/h or AADT >8,000 → grade-separated path",cycle_lane,protected_track,high_stress_barrier,4,False,,False,AADT proxy used — verify with municipal traffic model
150,GAP-006,island,,Foxglove Crescent,Royal Orchard Place,33.2,44.5,2.1,40.0,30.0,50.0,43.4101909,-80.5296009,43.4159945,-80.5288986,648.0,,inf,,Barrier crossing — engineering review required,1,very high,Barrier crossing — OTM Book 18 Section 3.5,shared_path,protected_track,high_stress_barrier,4,True,,False,AADT proxy used — verify with municipal traffic model
151,GAP-050,detour,,Unnamed tertiary,Unknown,28.5,30.4,34.5,12.0,30.0,50.0,43.4947613,-80.5768586,43.4902894,-80.5809327,596.0,2.7530852253445928,2.75,1641.0,Protected cycle track (physically separated),1,medium-high,"OTM Book 18 Fig 3-1: Speed 50-60 km/h or AADT 3,000-8,000 → protected cycle track",cycle_lane,cycle_lane,high_stress_barrier,4,False,,False,AADT proxy used — verify with municipal traffic model
